[
  {"id":1,"name":"Arequipa Fight Club","discipline":"MMA","level":"All levels","location":"Av. Example 123","img":"images/gym-1.webp","hours":"Mon-Fri 6:00-22:00, Sat 8:00-14:00","phone":"+51 999 001 111","trainers":["Ramirez (Head Coach)","Ana Torres (Striking)"]},
  {"id":2,"name":"Puerta Dojo","discipline":"Jiu-Jitsu","level":"All levels","location":"Calle Luna 45","img":"images/gym-2.webp","hours":"Mon-Fri 7:30-21:00, Sat 9:00-13:00","phone":"+51 999 002 222","trainers":["Carlos Mendes (BJJ)","Lucia Perez (Gi/No-Gi)"]},
  {"id":3,"name":"Sunrise Boxing","discipline":"Boxing","level":"Beginner","location":"Av. Sol 12","img":"images/gym-3.webp","hours":"Tue-Thu 18:00-22:00, Sat 10:00-12:00","phone":"+51 999 003 333","trainers":["Miguel Soto (Boxing Coach)"]},
  {"id":4,"name":"Clinch Muay Thai","discipline":"Muay Thai","level":"All levels","location":"Jr. Paz 78","img":"images/gym-4.webp","hours":"Mon-Wed-Fri 19:00-21:00, Sat 9:00-11:00","phone":"+51 999 004 444","trainers":["Somsak (Muay Thai)","Jose R. (Pad Work)"]},
  {"id":5,"name":"Eagle Wrestling","discipline":"Wrestling","level":"All levels","location":"Plaza Centro 9","img":"images/gym-5.webp","hours":"Mon-Fri 16:00-20:00","phone":"+51 999 005 555","trainers":["Olga Kim (Wrestling)"]},
  {"id":6,"name":"Strike Zone","discipline":"Kickboxing","level":"All levels","location":"Calle Fuerte 21","img":"images/gym-6.webp","hours":"Tue-Thu 17:30-20:30, Sat 10:00-12:00","phone":"+51 999 006 666","trainers":["David Lane (Kickboxing)"]},
  {"id":7,"name":"Sambo Pro Gym","discipline":"Sambo","level":"Advanced","location":"Av. Norte 100","img":"images/gym-7.webp","hours":"Mon-Wed-Fri 18:00-21:00","phone":"+51 999 007 777","trainers":["Ivan Petrov (Sambo)"]},
  {"id":8,"name":"Krav Defense","discipline":"Krav Maga","level":"All levels","location":"Jr. Defensa 14","img":"images/gym-8.webp","hours":"Wed 18:00-20:00, Sat 14:00-16:00","phone":"+51 999 008 888","trainers":["Sara Blum (Krav Maga)"]},
  {"id":9,"name":"Team Alpha MMA","discipline":"MMA","level":"Intermediate","location":"Av. Liga 7","img":"images/gym-9.webp","hours":"Mon-Fri 17:00-22:00, Sun 9:00-12:00","phone":"+51 999 009 999","trainers":["Felix Ortega (Head Trainer)","Nora Vega (Strength)"]},
  {"id":10,"name":"Powerhouse Boxing","discipline":"Boxing","level":"Advanced","location":"Calle Grande 31","img":"images/gym-10.webp","hours":"Mon-Thu 18:30-21:30","phone":"+51 999 010 101","trainers":["Rafael Cruz (Pro Coach)"]},
  {"id":11,"name":"Grapple House","discipline":"Jiu-Jitsu","level":"All levels","location":"Pje. Lucha 5","img":"images/gym-11.webp","hours":"Tue-Thu 18:00-21:00, Sat 9:30-11:30","phone":"+51 999 011 111","trainers":["Marta Silva (BJJ)"]},
  {"id":12,"name":"Cliffside Muay","discipline":"Muay Thai","level":"All levels","location":"Malec√≥n 2","img":"images/gym-12.webp","hours":"Mon-Fri 17:00-20:00","phone":"+51 999 012 121","trainers":["Anan Boon (Muay Instructor)"]},
  {"id":13,"name":"Urban Wrestle","discipline":"Wrestling","level":"Intermediate","location":"Av. Norte 50","img":"images/gym-13.webp","hours":"Wed-Fri 16:30-19:30","phone":"+51 999 013 131","trainers":["Diego Ruiz (Wrestling)"]},
  {"id":14,"name":"Kick Lab","discipline":"Kickboxing","level":"All levels","location":"C. Artes 12","img":"images/gym-14.webp","hours":"Tue-Thu 19:00-21:00","phone":"+51 999 014 141","trainers":["Lena Park (Kickboxing)"]},
  {"id":15,"name":"Combat Sambo Club","discipline":"Sambo","level":"All levels","location":"Jr. Rusia 3","img":"images/gym-15.webp","hours":"Sat 10:00-13:00","phone":"+51 999 015 151","trainers":["Alexei Romanov (Sambo)"]}
]
